City_ID,City,Country,Date,Lat,Lng,Max Temp,Humidity,Cloudiness,Wind Speed,Current Description,Rain inches (last 3 hrs),Snow inches (last 3 hrs)
0,amapa,HN,2020-01-09 01:29:32,15.09,-87.97,71.6,94,40,4.7,scattered clouds,0.0,0.0
1,yulara,AU,2020-01-09 01:29:32,-25.24,130.99,104.0,14,86,20.8,overcast clouds,0.0,0.0
2,barrow,AR,2020-01-09 01:29:32,-38.31,-60.23,60.03,88,100,13.96,moderate rain,11.94,0.0
3,jamestown,AU,2020-01-09 01:29:08,-33.21,138.6,88.05,14,0,17.31,clear sky,0.0,0.0
4,lasa,CY,2020-01-09 01:29:33,34.92,32.53,50.0,81,99,9.17,overcast clouds,0.0,0.0
5,sitka,US,2020-01-09 01:29:33,37.17,-99.65,50.0,41,81,17.0,broken clouds,0.0,0.0
6,chajul,GT,2020-01-09 01:29:34,15.48,-91.04,52.92,99,98,2.46,light rain,0.25,0.0
7,kodiak,US,2020-01-09 01:29:35,39.95,-94.76,43.0,48,1,17.22,clear sky,0.0,0.0
8,shingu,JP,2020-01-09 01:29:36,33.72,135.99,53.6,58,40,14.99,scattered clouds,0.0,0.0
9,busselton,AU,2020-01-09 01:29:02,-33.64,115.35,71.01,51,17,1.01,few clouds,0.0,0.0
10,hermanus,ZA,2020-01-09 01:29:37,-34.42,19.24,64.0,91,13,18.1,few clouds,0.0,0.0
11,yellowknife,CA,2020-01-09 01:29:37,62.45,-114.38,-34.01,73,20,5.82,few clouds,0.0,0.0
12,new norfolk,AU,2020-01-09 01:29:37,-42.78,147.06,86.0,47,20,12.75,few clouds,0.0,0.0
13,hasaki,JP,2020-01-09 01:29:37,35.73,140.83,54.0,40,20,10.29,few clouds,0.0,0.0
14,thompson,CA,2020-01-09 01:29:38,55.74,-97.86,-18.4,75,75,3.36,broken clouds,0.0,0.0
15,lebu,ET,2020-01-09 01:29:38,8.96,38.73,57.2,67,20,14.99,few clouds,0.0,0.0
16,east london,ZA,2020-01-09 01:29:38,-33.02,27.91,77.68,70,98,10.36,light rain,0.75,0.0
17,bambous virieux,MU,2020-01-09 01:29:38,-20.34,57.76,75.2,88,40,12.5,scattered clouds,0.0,0.0
18,georgetown,GY,2020-01-09 01:28:43,6.8,-58.16,78.8,88,40,9.17,scattered clouds,0.0,0.0
19,kruisfontein,ZA,2020-01-09 01:29:39,-34.0,24.73,65.95,90,53,17.98,broken clouds,0.0,0.0
20,emerald,AU,2020-01-09 01:29:39,-23.53,148.16,91.4,43,19,6.93,few clouds,0.0,0.0
21,hofn,IS,2020-01-09 01:29:39,64.25,-15.21,40.37,65,22,42.21,light snow,0.0,0.25
22,tutoia,BR,2020-01-09 01:26:56,-2.76,-42.27,75.65,92,10,3.62,clear sky,0.0,0.0
23,huarmey,PE,2020-01-09 01:29:40,-10.07,-78.15,69.17,80,34,6.06,scattered clouds,0.0,0.0
24,barcelos,BR,2020-01-09 01:27:56,-0.97,-62.93,77.11,89,53,3.85,light rain,0.19,0.0
25,ilulissat,GL,2020-01-09 01:29:41,69.22,-51.1,-14.62,80,100,6.62,overcast clouds,0.0,0.0
26,prince rupert,CA,2020-01-09 01:27:44,54.32,-130.32,33.8,86,75,5.82,broken clouds,0.0,0.0
27,araouane,ML,2020-01-09 01:29:44,18.9,-3.53,63.54,18,51,10.45,broken clouds,0.0,0.0
28,mataura,NZ,2020-01-09 01:29:44,-46.19,168.86,58.35,54,85,5.99,overcast clouds,0.0,0.0
29,lompoc,US,2020-01-09 01:29:44,34.64,-120.46,60.01,71,1,10.29,clear sky,0.0,0.0
30,bredasdorp,ZA,2020-01-09 01:29:45,-34.53,20.04,64.4,72,59,8.05,broken clouds,0.0,0.0
31,bluff,AU,2020-01-09 01:29:45,-23.58,149.07,84.06,50,16,8.57,few clouds,0.0,0.0
32,jacareacanga,BR,2020-01-09 01:29:45,-6.22,-57.76,73.67,96,100,2.13,moderate rain,4.06,0.0
33,talnakh,RU,2020-01-09 01:29:45,69.49,88.39,-4.0,76,75,22.37,light shower snow,0.0,0.0
34,boras,SE,2020-01-09 01:29:45,57.72,12.94,42.01,86,40,11.41,scattered clouds,0.0,0.0
35,pombia,GR,2020-01-09 01:29:46,35.01,24.87,50.0,76,75,27.51,broken clouds,0.0,0.0
36,tasiilaq,GL,2020-01-09 01:29:46,65.61,-37.64,-5.22,40,7,15.77,clear sky,0.0,0.0
37,batagay,RU,2020-01-09 01:29:47,67.65,134.64,-13.77,97,100,2.71,light snow,0.0,0.13
38,nemuro,JP,2020-01-09 01:29:47,43.32,145.57,28.4,63,40,10.29,light shower snow,0.0,0.0
39,bethel,US,2020-01-09 01:29:47,60.79,-161.76,-7.6,75,1,13.87,clear sky,0.0,0.0
40,kirakira,SB,2020-01-09 01:29:47,-10.46,161.92,77.88,92,100,5.12,moderate rain,5.56,0.0
41,constitucion,MX,2020-01-09 01:29:47,23.99,-104.67,62.6,39,75,10.29,broken clouds,0.0,0.0
42,tommot,RU,2020-01-09 01:29:48,58.97,126.27,9.21,95,100,7.72,light snow,0.0,0.19
43,brigantine,US,2020-01-09 01:29:48,39.41,-74.36,36.0,50,1,16.11,clear sky,0.0,0.0
44,fonte boa,BR,2020-01-09 01:29:48,-2.51,-66.09,79.5,63,52,1.16,broken clouds,0.0,0.0
45,huizhou,CN,2020-01-09 01:29:48,23.11,114.41,64.17,66,67,6.06,broken clouds,0.0,0.0
46,narsaq,GL,2020-01-09 01:29:48,60.91,-46.05,-7.76,56,0,3.76,clear sky,0.0,0.0
47,nanortalik,GL,2020-01-09 01:29:49,60.14,-45.24,15.98,69,100,27.51,overcast clouds,0.0,0.0
48,ponta do sol,BR,2020-01-09 01:29:49,-20.63,-46.0,70.88,93,100,3.13,light rain,1.44,0.0
49,lavrentiya,RU,2020-01-09 01:29:49,65.58,-170.99,-7.62,88,2,4.88,clear sky,0.0,0.0
50,longyearbyen,NO,2020-01-09 01:29:49,78.22,15.63,26.6,73,75,35.57,light snow,0.0,0.0
51,nikolskoye,RU,2020-01-09 01:29:49,59.7,30.79,41.0,93,90,13.42,overcast clouds,0.0,0.0
52,punta arenas,CL,2020-01-09 01:29:50,-53.16,-70.91,48.2,61,85,21.92,light rain,0.56,0.0
53,ushuaia,AR,2020-01-09 01:29:50,-54.81,-68.31,44.6,81,90,26.4,light rain,0.0,0.0
54,cape town,ZA,2020-01-09 01:29:50,-33.93,18.42,64.99,82,75,13.87,broken clouds,0.0,0.0
55,laki,BG,2020-01-09 01:29:50,41.47,23.72,28.99,85,16,0.6,few clouds,0.0,0.0
56,baykit,RU,2020-01-09 01:29:50,61.68,96.39,-3.28,98,94,3.09,overcast clouds,0.0,0.0
57,tarabuco,BO,2020-01-09 01:29:51,-19.18,-64.92,62.6,63,20,9.17,few clouds,0.0,0.0
58,jutai,BR,2020-01-09 01:29:51,-1.7,-47.89,74.35,98,100,3.18,light rain,1.25,0.0
59,riyadh,SA,2020-01-09 01:29:51,24.63,46.72,57.2,58,35,4.7,scattered clouds,0.0,0.0
60,alekseyevsk,RU,2020-01-09 01:29:51,57.84,108.35,7.43,96,100,5.06,light snow,0.0,0.31
61,mount gambier,AU,2020-01-09 01:29:52,-37.83,140.78,87.8,20,0,9.17,clear sky,0.0,0.0
62,igrim,RU,2020-01-09 01:29:52,63.19,64.42,13.1,89,50,12.01,scattered clouds,0.0,0.0
63,hobart,AU,2020-01-09 01:25:10,-42.88,147.33,86.0,47,20,12.75,few clouds,0.0,0.0
64,katsuura,JP,2020-01-09 01:29:52,33.93,134.5,54.0,54,75,11.41,broken clouds,0.0,0.0
65,kapaa,US,2020-01-09 01:29:53,22.08,-159.32,84.2,65,75,20.8,broken clouds,0.0,0.0
66,hithadhoo,MV,2020-01-09 01:29:53,-0.6,73.08,82.22,78,52,13.67,light rain,0.88,0.0
67,havre-saint-pierre,CA,2020-01-09 01:29:53,50.23,-63.6,15.8,85,90,5.82,overcast clouds,0.0,0.0
68,albany,US,2020-01-09 01:26:07,42.65,-73.75,27.0,58,40,25.28,light snow,0.0,0.0
69,port lincoln,AU,2020-01-09 01:29:53,-34.72,135.86,88.07,28,34,11.92,scattered clouds,0.0,0.0
70,port elizabeth,US,2020-01-09 01:29:54,39.31,-74.98,37.0,47,1,12.75,clear sky,0.0,0.0
71,hamilton,CA,2020-01-09 01:27:09,43.26,-79.87,21.99,67,20,8.05,few clouds,0.0,0.0
72,atuona,PF,2020-01-09 01:29:54,-9.8,-139.03,82.42,71,18,21.45,few clouds,0.0,0.0
73,vaini,IN,2020-01-09 01:29:54,15.34,74.49,60.8,93,76,2.98,broken clouds,0.0,0.0
74,port alfred,ZA,2020-01-09 01:29:54,-33.59,26.89,70.0,91,99,8.01,overcast clouds,0.0,0.0
75,upernavik,GL,2020-01-09 01:29:55,72.79,-56.15,-7.85,67,100,5.5,overcast clouds,0.0,0.0
76,severo-kurilsk,RU,2020-01-09 01:29:55,50.68,156.12,19.87,85,94,5.84,light snow,0.0,0.19
77,muros,ES,2020-01-09 01:29:55,42.77,-9.06,57.99,100,90,8.05,fog,0.0,0.0
78,port hedland,AU,2020-01-09 01:29:55,-20.31,118.58,95.0,53,40,17.22,scattered clouds,0.0,0.0
79,mahebourg,MU,2020-01-09 01:29:55,-20.41,57.7,75.2,88,40,7.92,scattered clouds,0.0,0.0
80,puerto ayora,EC,2020-01-09 01:29:56,-0.74,-90.35,75.2,88,90,14.99,light rain,0.0,0.0
81,el tigre,VE,2020-01-09 01:29:56,8.89,-64.25,79.23,65,74,13.94,broken clouds,0.0,0.0
82,fiumicino,IT,2020-01-09 01:29:56,41.77,12.23,43.0,68,0,4.7,clear sky,0.0,0.0
83,lisala,CD,2020-01-09 01:29:56,2.15,21.52,77.04,49,93,2.62,overcast clouds,0.0,0.0
84,staroye drozhzhanoye,RU,2020-01-09 01:29:56,54.73,47.56,19.29,93,82,13.78,broken clouds,0.0,0.0
85,pevek,RU,2020-01-09 01:29:57,69.7,170.27,-13.65,84,10,6.38,clear sky,0.0,0.0
86,dangriga,BZ,2020-01-09 01:29:57,16.97,-88.23,71.6,100,75,5.82,broken clouds,0.0,0.0
87,belaya gora,RU,2020-01-09 01:29:57,68.54,146.19,-9.2,97,100,4.59,overcast clouds,0.0,0.0
88,najran,SA,2020-01-09 01:29:57,17.54,44.22,57.2,67,0,2.24,clear sky,0.0,0.0
89,makinsk,KZ,2020-01-09 01:29:57,52.63,70.42,2.34,96,100,8.16,overcast clouds,0.0,0.0
90,garowe,SO,2020-01-09 01:29:59,8.41,48.48,69.89,77,34,7.9,scattered clouds,0.0,0.0
91,salalah,OM,2020-01-09 01:29:59,17.01,54.1,75.2,64,75,3.36,broken clouds,0.0,0.0
92,mumford,GH,2020-01-09 01:29:59,5.26,-0.76,75.78,82,81,3.04,broken clouds,0.0,0.0
93,ancud,CL,2020-01-09 01:29:59,-41.87,-73.83,46.4,87,75,6.93,light intensity shower rain,0.0,0.0
94,mehamn,NO,2020-01-09 01:30:00,71.03,27.85,30.51,77,55,12.08,broken clouds,0.0,0.0
95,ahipara,NZ,2020-01-09 01:30:00,-35.17,173.16,62.64,67,85,13.24,overcast clouds,0.0,0.0
96,antofagasta,CL,2020-01-09 01:30:00,-23.65,-70.4,68.0,82,75,13.87,broken clouds,0.0,0.0
97,butaritari,KI,2020-01-09 01:30:00,3.07,172.79,84.69,78,100,17.38,overcast clouds,0.0,0.0
98,cruzeiro,BR,2020-01-09 01:28:46,-22.58,-44.96,69.01,94,100,3.58,light rain,2.06,0.0
99,namtsy,RU,2020-01-09 01:30:01,62.72,129.66,-5.8,76,40,4.16,light snow,0.0,0.0
100,mar del plata,AR,2020-01-09 01:30:01,-46.43,-67.52,53.65,40,61,23.11,broken clouds,0.0,0.0
101,cherskiy,RU,2020-01-09 01:30:02,68.75,161.3,-24.02,79,64,2.66,broken clouds,0.0,0.0
102,castro,CL,2020-01-09 01:30:02,-42.48,-73.76,46.4,87,75,6.93,light intensity shower rain,0.0,0.0
103,pangnirtung,CA,2020-01-09 01:30:03,66.15,-65.72,-28.05,87,100,4.21,overcast clouds,0.0,0.0
104,zakamensk,RU,2020-01-09 01:30:03,50.38,103.29,-0.29,79,99,2.04,overcast clouds,0.0,0.0
105,avarua,CK,2020-01-09 01:28:34,-21.21,-159.78,84.2,74,99,17.22,overcast clouds,0.0,0.0
106,tiksi,RU,2020-01-09 01:30:04,71.64,128.87,-9.44,88,100,6.51,overcast clouds,0.0,0.0
107,broken hill,AU,2020-01-09 01:30:04,-31.96,141.45,96.8,11,0,12.75,clear sky,0.0,0.0
108,huilong,CN,2020-01-09 01:30:04,31.15,106.5,46.27,76,100,0.72,overcast clouds,0.0,0.0
109,caravelas,BR,2020-01-09 01:30:05,-17.73,-39.27,70.5,95,100,6.76,overcast clouds,0.0,0.0
110,alice springs,AU,2020-01-09 01:30:05,-23.7,133.88,98.6,23,100,19.46,overcast clouds,0.0,0.0
111,qena,EG,2020-01-09 01:30:05,26.16,32.72,44.6,70,0,2.24,clear sky,0.0,0.0
112,rikitea,PF,2020-01-09 01:30:05,-23.12,-134.97,76.66,80,5,23.78,light rain,1.06,0.0
113,lerwick,GB,2020-01-09 01:30:05,60.15,-1.15,45.72,65,77,20.0,light rain,0.5,0.0
114,kaitangata,NZ,2020-01-09 01:30:05,-46.28,169.85,61.0,46,100,17.0,overcast clouds,0.0,0.0
115,xuddur,SO,2020-01-09 01:25:06,4.12,43.89,71.11,82,42,13.42,scattered clouds,0.0,0.0
116,airai,TL,2020-01-09 01:30:06,-8.93,125.41,81.41,47,90,5.32,overcast clouds,0.0,0.0
117,tautira,PF,2020-01-09 01:30:06,-17.73,-149.15,86.0,66,75,4.7,broken clouds,0.0,0.0
118,wembley,CA,2020-01-09 01:30:06,55.15,-119.14,-11.2,76,20,11.41,few clouds,0.0,0.0
119,linhares,BR,2020-01-09 01:30:07,-19.38,-40.06,70.77,96,100,3.09,overcast clouds,0.0,0.0
120,canon city,US,2020-01-09 01:30:07,39.46,-117.13,28.4,74,1,4.7,clear sky,0.0,0.0
121,hebi,CN,2020-01-09 01:30:07,35.75,114.29,39.61,37,95,3.67,overcast clouds,0.0,0.0
122,port pirie,AU,2020-01-09 01:30:07,-33.18,138.01,98.6,16,2,9.17,clear sky,0.0,0.0
123,tuatapere,NZ,2020-01-09 01:30:08,-46.13,167.69,64.24,30,83,2.17,broken clouds,0.0,0.0
124,tobol,SE,2020-01-09 01:30:08,59.83,12.54,39.2,69,0,8.05,clear sky,0.0,0.0
125,wattegama,LK,2020-01-09 01:30:08,7.35,80.68,74.82,69,21,3.18,few clouds,0.0,0.0
126,nuuk,GL,2020-01-09 01:30:10,64.17,-51.74,6.01,84,100,24.0,light snow,0.0,0.31
127,santa maria,BR,2020-01-09 01:30:10,-16.02,-48.01,75.2,83,75,2.24,broken clouds,0.0,0.0
128,sandwick,GB,2020-01-09 01:30:10,54.57,-2.89,42.01,90,100,7.36,snow,0.0,4.25
129,iqaluit,CA,2020-01-09 01:30:10,63.75,-68.52,-13.0,69,75,2.24,broken clouds,0.0,0.0
130,nioro,GM,2020-01-09 01:30:10,13.79,-15.05,64.47,12,100,12.64,overcast clouds,0.0,0.0
131,puerto narino,CO,2020-01-09 01:30:11,-3.77,-70.38,77.0,100,75,3.36,broken clouds,0.0,0.0
132,qianan,CN,2020-01-09 01:30:11,44.99,124.06,8.1,89,3,3.83,clear sky,0.0,0.0
133,roma,IT,2020-01-09 01:27:39,41.89,12.48,46.0,69,0,3.36,clear sky,0.0,0.0
134,kenai,US,2020-01-09 01:30:11,60.55,-151.26,-2.0,76,1,5.82,clear sky,0.0,0.0
135,victoria,BN,2020-01-09 01:30:11,5.28,115.24,82.4,78,75,8.05,broken clouds,0.0,0.0
136,kununurra,AU,2020-01-09 01:30:12,-15.77,128.74,89.6,62,40,4.7,scattered clouds,0.0,0.0
137,tarko-sale,RU,2020-01-09 01:30:12,64.92,77.78,-4.38,98,92,12.19,overcast clouds,0.0,0.0
138,ullapool,GB,2020-01-09 01:28:58,57.9,-5.16,37.99,86,56,1.01,light snow,0.0,0.19
139,rundu,NA,2020-01-09 01:30:12,-17.91,19.77,68.0,82,16,2.24,few clouds,0.0,0.0
140,angostura,MX,2020-01-09 01:30:12,25.37,-108.16,64.0,83,53,1.21,broken clouds,0.0,0.0
141,maldonado,UY,2020-01-09 01:30:13,-34.91,-54.96,77.0,47,0,13.87,clear sky,0.0,0.0
142,obuasi,GH,2020-01-09 01:30:13,6.21,-1.69,72.19,76,58,0.69,broken clouds,0.0,0.0
143,kimbe,PG,2020-01-09 01:30:13,-5.56,150.15,85.71,77,100,3.65,moderate rain,4.63,0.0
144,khatanga,RU,2020-01-09 01:30:13,71.98,102.47,-4.58,96,100,9.55,light snow,0.0,0.13
145,dikson,RU,2020-01-09 01:30:13,73.51,80.55,-11.43,96,95,13.53,overcast clouds,0.0,0.0
146,lagos,NG,2020-01-09 01:29:14,6.46,3.39,81.41,77,47,6.62,scattered clouds,0.0,0.0
147,tondano,ID,2020-01-09 01:30:14,1.3,124.91,80.6,88,40,4.27,scattered clouds,0.0,0.0
148,matagami,NG,2020-01-09 01:30:14,9.67,8.4,69.08,32,0,5.64,clear sky,0.0,0.0
149,saint anthony,US,2020-01-09 01:30:14,43.97,-111.68,30.2,74,75,13.87,broken clouds,0.0,0.0
150,burnie,AU,2020-01-09 01:30:14,-41.05,145.91,73.0,58,13,14.0,few clouds,0.0,0.0
151,sangmelima,CM,2020-01-09 01:30:14,2.93,11.98,69.08,93,34,3.44,scattered clouds,0.0,0.0
152,adrar,DZ,2020-01-09 01:30:15,27.87,-0.29,44.6,45,0,11.41,clear sky,0.0,0.0
153,neyshabur,IR,2020-01-09 01:30:15,36.21,58.79,30.65,43,0,3.22,clear sky,0.0,0.0
154,leh,IN,2020-01-09 01:30:16,34.16,77.58,-4.63,88,100,0.85,overcast clouds,0.0,0.0
155,bitung,ID,2020-01-09 01:30:16,1.44,125.19,80.6,88,40,4.27,scattered clouds,0.0,0.0
156,port moresby,PG,2020-01-09 01:28:31,-9.47,147.16,86.0,74,40,12.75,scattered clouds,0.0,0.0
157,yerbogachen,RU,2020-01-09 01:30:17,61.28,108.01,2.44,95,100,7.76,overcast clouds,0.0,0.0
158,ferkessedougou,CI,2020-01-09 01:30:17,9.6,-5.2,73.2,31,10,2.33,clear sky,0.0,0.0
159,cidreira,BR,2020-01-09 01:30:17,-30.17,-50.22,74.88,85,10,24.79,clear sky,0.0,0.0
160,pauini,BR,2020-01-09 01:30:17,-7.71,-67.0,73.94,93,100,2.68,light rain,0.81,0.0
161,bonthe,SL,2020-01-09 01:30:18,7.53,-12.5,77.77,85,76,4.25,broken clouds,0.0,0.0
162,glendive,US,2020-01-09 01:30:18,47.11,-104.71,26.6,86,1,6.93,clear sky,0.0,0.0
163,hilo,US,2020-01-09 01:30:18,19.71,-155.08,82.4,54,75,17.22,broken clouds,0.0,0.0
164,codrington,AU,2020-01-09 01:30:18,-28.95,153.24,91.99,38,78,4.7,broken clouds,0.0,0.0
165,rafraf,TN,2020-01-09 01:30:18,37.19,10.18,51.8,93,40,4.7,scattered clouds,0.0,0.0
166,lithakia,GR,2020-01-09 01:30:19,37.72,20.83,42.01,80,0,12.01,clear sky,0.0,0.0
167,mezhdurechenskiy,RU,2020-01-09 01:30:19,59.59,65.91,6.12,93,0,9.22,clear sky,0.0,0.0
168,sao filipe,CV,2020-01-09 01:30:19,14.9,-24.5,65.82,75,96,21.09,overcast clouds,0.0,0.0
169,ketchikan,US,2020-01-09 01:30:19,55.34,-131.65,32.0,96,1,2.84,clear sky,0.0,0.0
170,peniche,PT,2020-01-09 01:30:20,39.36,-9.38,55.99,100,75,6.93,broken clouds,0.0,0.0
171,los llanos de aridane,ES,2020-01-09 01:30:20,28.66,-17.92,64.4,68,90,12.75,overcast clouds,0.0,0.0
172,gisborne,NZ,2020-01-09 01:30:20,-38.66,178.02,69.01,51,43,4.0,light rain,0.19,0.0
173,padang,ID,2020-01-09 01:30:20,-0.92,100.36,81.99,62,79,3.71,broken clouds,0.0,0.0
174,canico,PT,2020-01-09 01:30:21,32.63,-16.85,62.6,59,40,11.41,scattered clouds,0.0,0.0
175,sao joao da barra,BR,2020-01-09 01:30:21,-21.64,-41.05,77.0,91,100,16.35,overcast clouds,0.0,0.0
176,guider,CM,2020-01-09 01:30:22,9.93,13.94,69.21,31,0,9.46,clear sky,0.0,0.0
177,saskylakh,RU,2020-01-09 01:30:22,71.97,114.09,-2.72,95,98,7.72,overcast clouds,0.0,0.0
178,gizo,IL,2020-01-09 01:30:22,31.8,34.94,51.01,100,75,4.7,thunderstorm with rain,0.0,0.0
179,makakilo city,US,2020-01-09 01:29:04,21.35,-158.09,80.6,64,20,16.11,few clouds,0.0,0.0
180,manacapuru,BR,2020-01-09 01:30:22,-3.3,-60.62,80.6,83,20,4.7,few clouds,0.0,0.0
181,aklavik,CA,2020-01-09 01:30:23,68.22,-135.01,-16.6,67,75,2.24,light snow,0.0,0.0
182,dongsheng,CN,2020-01-09 01:30:23,29.72,112.52,39.25,92,100,9.86,light rain,0.56,0.0
183,brae,GB,2020-01-09 01:30:23,60.4,-1.35,44.89,65,60,19.6,light rain,0.5,0.0
184,luderitz,NA,2020-01-09 01:30:23,-26.65,15.16,64.4,77,0,8.05,clear sky,0.0,0.0
185,binga,ZW,2020-01-09 01:30:24,-17.62,27.34,74.68,89,100,1.99,moderate rain,3.25,0.0
186,menomonie,US,2020-01-09 01:28:33,44.88,-91.92,15.01,65,1,10.29,clear sky,0.0,0.0
187,khani,GE,2020-01-09 01:30:24,41.96,42.96,44.6,87,90,2.24,light rain,0.0,0.0
188,okha,RU,2020-01-09 01:30:24,53.59,142.95,6.58,91,80,14.97,broken clouds,0.0,0.0
189,pokrovsk,RU,2020-01-09 01:30:24,61.48,129.14,4.66,93,99,5.68,light snow,0.0,0.13
190,cabo san lucas,MX,2020-01-09 01:27:43,22.89,-109.91,72.0,60,20,4.7,few clouds,0.0,0.0
191,spearfish,US,2020-01-09 01:30:25,44.49,-103.86,37.4,92,90,8.05,overcast clouds,0.0,0.0
192,nchelenge,ZM,2020-01-09 01:30:25,-9.35,28.74,67.64,95,100,9.4,light rain,2.63,0.0
193,vostok,RU,2020-01-09 01:30:25,46.45,135.83,12.34,89,87,2.73,overcast clouds,0.0,0.0
194,pisco,PE,2020-01-09 01:30:25,-13.71,-76.2,71.6,88,90,19.46,overcast clouds,0.0,0.0
195,wanning,AT,2020-01-09 01:30:26,48.64,13.53,37.99,100,75,3.36,broken clouds,0.0,0.0
196,clyde river,CA,2020-01-09 01:30:26,70.47,-68.59,-14.8,83,90,4.7,light snow,0.0,0.0
197,syracuse,US,2020-01-09 01:30:26,43.05,-76.15,23.0,67,90,23.04,light snow,0.0,0.0
198,soyo,AO,2020-01-09 01:30:26,-6.13,12.37,73.8,95,100,4.23,moderate rain,11.38,0.0
199,san cristobal,HN,2020-01-09 01:30:27,14.68,-86.92,60.78,96,25,2.51,scattered clouds,0.0,0.0
200,butembo,CD,2020-01-09 01:30:28,0.12,29.29,60.3,94,55,2.8,light rain,2.13,0.0
201,jalu,LY,2020-01-09 01:30:28,29.03,21.55,47.73,70,17,7.2,few clouds,0.0,0.0
202,kaa-khem,RU,2020-01-09 01:30:28,51.7,94.56,-6.84,98,98,0.51,light snow,0.0,0.13
203,sur,OM,2020-01-09 01:30:29,22.57,59.53,62.8,61,0,2.51,clear sky,0.0,0.0
204,ibotirama,BR,2020-01-09 01:26:42,-12.18,-43.22,73.38,85,7,2.39,light rain,0.44,0.0
205,lasem,ID,2020-01-09 01:30:29,-6.99,112.52,87.89,64,9,7.16,clear sky,0.0,0.0
206,bowen,AU,2020-01-09 01:30:29,-20.01,148.25,90.0,55,40,14.99,scattered clouds,0.0,0.0
207,oistins,BB,2020-01-09 01:30:24,13.07,-59.53,78.8,74,40,18.34,scattered clouds,0.0,0.0
208,vangaindrano,MG,2020-01-09 01:30:30,-23.35,47.6,72.72,95,28,2.28,scattered clouds,0.0,0.0
209,carnarvon,ZA,2020-01-09 01:30:30,-30.97,22.13,61.57,65,0,8.99,clear sky,0.0,0.0
210,huaraz,PE,2020-01-09 01:30:30,-9.53,-77.53,44.51,74,71,0.4,light rain,0.81,0.0
211,blue springs,US,2020-01-09 01:27:30,39.02,-94.28,53.01,56,1,5.82,clear sky,0.0,0.0
212,kurgunta,IN,2020-01-09 01:30:30,17.2,77.35,69.73,80,32,7.9,scattered clouds,0.0,0.0
213,amahai,ID,2020-01-09 01:30:31,-3.31,129.0,82.76,72,98,2.57,overcast clouds,0.0,0.0
214,larap,PH,2020-01-09 01:30:31,14.3,122.65,79.12,82,6,15.23,light rain,0.19,0.0
215,uvat,RU,2020-01-09 01:30:31,59.14,68.9,2.68,97,90,7.38,overcast clouds,0.0,0.0
216,ginda,IN,2020-01-09 01:30:31,30.69,78.49,29.64,89,0,4.52,clear sky,0.0,0.0
217,mingyue,CN,2020-01-09 01:30:31,43.11,128.91,17.49,71,59,8.72,broken clouds,0.0,0.0
218,anloga,GH,2020-01-09 01:30:32,5.79,0.9,78.85,80,77,6.71,broken clouds,0.0,0.0
219,broome,GB,2020-01-09 01:30:32,52.47,1.45,50.0,93,90,11.41,light rain,0.0,0.0
220,kijang,KR,2020-01-09 01:30:32,35.24,129.21,39.2,60,99,13.87,overcast clouds,0.0,0.0
221,chota,EC,2020-01-09 01:30:32,0.47,-78.07,49.8,69,0,8.5,clear sky,0.0,0.0
222,hasanabad,IR,2020-01-09 01:30:32,35.37,51.24,41.0,64,75,3.36,broken clouds,0.0,0.0
223,arraial do cabo,BR,2020-01-09 01:30:33,-22.97,-42.02,77.0,94,100,2.57,overcast clouds,0.0,0.0
224,hirara,JP,2020-01-09 01:30:33,24.8,125.28,68.0,60,75,8.05,broken clouds,0.0,0.0
225,mogadishu,SO,2020-01-09 01:30:33,2.04,45.34,79.14,83,100,20.07,overcast clouds,0.0,0.0
226,axim,GH,2020-01-09 01:30:33,4.87,-2.24,75.36,82,86,2.37,overcast clouds,0.0,0.0
227,belyy yar,RU,2020-01-09 01:30:33,53.6,91.39,3.2,84,100,0.38,fog,0.0,0.0
228,viedma,AR,2020-01-09 01:30:34,-40.81,-62.99,67.1,25,100,26.98,overcast clouds,0.0,0.0
229,tianpeng,CN,2020-01-09 01:30:34,28.88,112.34,40.91,90,100,9.1,light rain,0.81,0.0
230,ribeira grande,PT,2020-01-09 01:30:34,38.52,-28.7,56.79,85,33,5.91,scattered clouds,0.0,0.0
231,steinbach,CA,2020-01-09 01:30:34,49.53,-96.69,3.0,77,90,20.8,light snow,0.0,0.0
232,chokurdakh,RU,2020-01-09 01:30:34,70.62,147.9,-10.21,97,91,5.59,overcast clouds,0.0,0.0
233,saint-philippe,CA,2020-01-09 01:30:35,45.36,-73.48,19.4,62,75,18.34,light snow,0.0,0.0
234,tynda,RU,2020-01-09 01:30:35,55.15,124.74,-2.54,92,53,2.35,broken clouds,0.0,0.0
235,aguimes,ES,2020-01-09 01:30:35,27.91,-15.45,64.4,63,40,14.99,scattered clouds,0.0,0.0
236,sola,TZ,2020-01-09 01:30:35,-3.17,33.8,63.37,92,74,3.69,light rain,1.19,0.0
237,huntsville,US,2020-01-09 01:30:36,34.73,-86.59,48.2,75,1,3.11,clear sky,0.0,0.0
238,ibra,OM,2020-01-09 01:30:36,22.69,58.55,59.68,71,0,1.12,clear sky,0.0,0.0
239,nganjuk,ID,2020-01-09 01:30:36,-7.6,111.9,85.05,71,96,6.29,light rain,1.06,0.0
240,tateyama,JP,2020-01-09 01:30:36,36.66,137.31,48.99,75,40,5.82,scattered clouds,0.0,0.0
241,maragogi,BR,2020-01-09 01:30:36,-9.01,-35.22,79.83,77,5,15.79,light rain,0.13,0.0
242,kurumkan,RU,2020-01-09 01:30:37,54.33,110.32,3.18,95,100,0.98,light snow,0.0,0.13
243,gayeri,BF,2020-01-09 01:30:37,12.65,0.49,71.78,24,0,8.72,clear sky,0.0,0.0
244,chuy,UY,2020-01-09 01:30:37,-33.69,-53.46,67.95,72,0,10.83,clear sky,0.0,0.0
245,bambanglipuro,ID,2020-01-09 01:30:37,-7.95,110.28,83.1,72,49,8.99,light rain,2.75,0.0
246,balkanabat,TM,2020-01-09 01:30:37,39.51,54.36,40.24,46,100,4.29,overcast clouds,0.0,0.0
247,touros,BR,2020-01-09 01:30:38,-5.2,-35.46,80.6,83,75,8.05,shower rain,0.0,0.0
248,vila velha,BR,2020-01-09 01:30:38,-3.71,-38.6,82.4,74,75,4.7,broken clouds,0.0,0.0
249,manama,AE,2020-01-09 01:30:38,25.33,56.02,66.2,59,0,6.93,clear sky,0.0,0.0
250,turangi,NZ,2020-01-09 01:30:38,-39.0,175.93,72.0,46,36,7.0,scattered clouds,0.0,0.0
251,daru,PG,2020-01-09 01:30:39,-9.07,143.21,90.27,53,100,3.71,overcast clouds,0.0,0.0
252,pontes e lacerda,BR,2020-01-09 01:30:39,-15.23,-59.33,72.91,97,100,2.57,overcast clouds,0.0,0.0
253,ambon,FR,2020-01-09 01:30:39,47.55,-2.56,55.0,100,90,19.46,mist,0.0,0.0
254,beringovskiy,RU,2020-01-09 01:30:40,63.05,179.32,13.37,89,100,19.1,light snow,0.0,0.19
255,shestakovo,RU,2020-01-09 01:30:40,56.49,103.96,5.92,95,100,3.22,light snow,0.0,0.13
256,guerrero negro,MX,2020-01-09 01:30:40,27.97,-114.04,59.05,76,100,6.89,overcast clouds,0.0,0.0
257,tuktoyaktuk,CA,2020-01-09 01:30:40,69.44,-133.03,-20.2,75,75,11.41,light snow,0.0,0.0
258,yuksekova,TR,2020-01-09 01:30:40,37.57,44.29,26.6,100,90,2.24,overcast clouds,0.0,0.0
259,mango,CF,2020-01-09 01:30:41,4.65,22.36,73.17,34,75,5.79,broken clouds,0.0,0.0
260,kahului,US,2020-01-09 01:30:41,20.89,-156.47,80.6,54,40,16.11,scattered clouds,0.0,0.0
261,liancheng,CN,2020-01-09 01:30:41,24.05,105.06,65.95,63,0,12.77,clear sky,0.0,0.0
262,monastyrshchina,RU,2020-01-09 01:30:41,54.35,31.84,33.91,95,100,12.95,light rain,0.25,0.0
263,diffa,NE,2020-01-09 01:30:42,13.32,12.61,65.89,32,9,12.26,clear sky,0.0,0.0
264,pecos,US,2020-01-09 01:30:42,31.42,-103.49,60.8,23,1,6.62,clear sky,0.0,0.0
265,lorengau,PG,2020-01-09 01:30:42,-2.02,147.27,83.61,77,100,9.95,moderate rain,4.44,0.0
266,boyabat,TR,2020-01-09 01:30:42,41.47,34.77,28.42,95,98,1.43,light snow,0.0,0.56
267,high prairie,CA,2020-01-09 01:30:42,55.43,-116.48,-7.46,97,100,6.96,light snow,0.0,0.19
268,ouadda,CF,2020-01-09 01:30:43,8.07,22.4,67.05,31,44,5.46,scattered clouds,0.0,0.0
269,provideniya,RU,2020-01-09 01:30:43,64.42,-173.23,1.4,77,49,15.66,scattered clouds,0.0,0.0
270,batemans bay,AU,2020-01-09 01:30:43,-35.71,150.18,66.0,81,100,3.91,light rain,0.25,0.0
271,kushiro,JP,2020-01-09 01:30:43,43.11,144.15,28.4,58,20,11.41,few clouds,0.0,0.0
272,san patricio,PY,2020-01-09 01:30:44,-26.98,-56.83,79.57,57,87,5.59,overcast clouds,0.0,0.0
273,kirkwood,ZA,2020-01-09 01:30:44,-33.4,25.44,68.0,88,20,19.46,few clouds,0.0,0.0
274,singkang,MY,2020-01-09 01:30:44,2.1,102.8,82.4,69,20,8.05,few clouds,0.0,0.0
275,vagay,RU,2020-01-09 01:30:44,57.94,69.02,5.29,97,96,4.61,overcast clouds,0.0,0.0
276,dingle,PH,2020-01-09 01:30:45,11.0,122.67,81.32,75,58,14.12,light rain,0.19,0.0
277,houma,CN,2020-01-09 01:30:45,35.63,111.36,35.53,70,95,2.37,overcast clouds,0.0,0.0
278,lakes entrance,AU,2020-01-09 01:30:46,-37.88,147.99,82.0,73,53,8.01,broken clouds,0.0,0.0
279,vila,IT,2020-01-09 01:30:46,45.18,8.4,39.99,100,0,4.7,clear sky,0.0,0.0
280,samarai,PG,2020-01-09 01:30:46,-10.62,150.67,87.57,64,1,8.95,clear sky,0.0,0.0
281,sisimiut,GL,2020-01-09 01:30:46,66.94,-53.67,-6.61,79,100,19.19,light snow,0.0,0.56
282,sawtell,AU,2020-01-09 01:30:46,-30.38,153.1,91.0,58,78,12.75,broken clouds,0.0,0.0
283,koulikoro,ML,2020-01-09 01:30:46,12.86,-7.56,69.8,37,1,3.36,clear sky,0.0,0.0
284,kirksville,US,2020-01-09 01:30:47,40.19,-92.58,30.99,54,1,14.99,clear sky,0.0,0.0
285,half moon bay,US,2020-01-09 01:30:47,37.46,-122.43,54.0,87,75,6.93,broken clouds,0.0,0.0
286,ciudad bolivar,VE,2020-01-09 01:30:47,8.12,-63.55,77.41,71,0,10.96,clear sky,0.0,0.0
287,leningradskiy,RU,2020-01-09 01:30:47,69.38,178.42,-10.32,81,99,5.48,overcast clouds,0.0,0.0
288,coahuayana,MX,2020-01-09 01:30:48,18.62,-100.35,71.67,33,0,3.53,clear sky,0.0,0.0
289,xichang,CN,2020-01-09 01:29:21,27.88,102.25,30.99,98,16,5.12,few clouds,0.0,0.0
290,qaanaaq,GL,2020-01-09 01:30:48,77.48,-69.36,-21.33,78,36,2.95,scattered clouds,0.0,0.0
291,struer,DK,2020-01-09 01:30:48,56.48,8.6,42.01,86,82,6.93,broken clouds,0.0,0.0
292,harper,US,2020-01-09 01:30:48,30.3,-99.24,63.0,51,90,8.05,overcast clouds,0.0,0.0
293,san fernando,TT,2020-01-09 01:30:49,10.28,-61.46,80.6,74,75,6.93,broken clouds,0.0,0.0
294,the valley,AI,2020-01-09 01:30:49,18.22,-63.06,80.01,78,20,11.41,few clouds,0.0,0.0
295,beyneu,KZ,2020-01-09 01:30:49,45.32,55.19,31.66,90,100,13.24,overcast clouds,0.0,0.0
296,yar-sale,RU,2020-01-09 01:30:50,66.83,70.83,-2.97,97,100,16.73,overcast clouds,0.0,0.0
297,tavda,RU,2020-01-09 01:30:50,58.04,65.27,2.01,96,0,5.61,clear sky,0.0,0.0
298,mareeba,AU,2020-01-09 01:30:50,-16.99,145.42,91.0,70,75,16.11,light intensity shower rain,0.0,0.0
299,namatanai,PG,2020-01-09 01:30:50,-3.66,152.44,85.51,73,97,10.6,light rain,1.63,0.0
300,vanavara,RU,2020-01-09 01:30:50,60.35,102.28,-1.97,98,100,5.12,overcast clouds,0.0,0.0
301,kudahuvadhoo,MV,2020-01-09 01:30:51,2.67,72.89,82.22,78,100,17.98,overcast clouds,0.0,0.0
302,ayacucho,PE,2020-01-09 01:30:51,-13.16,-74.23,46.44,89,100,4.36,overcast clouds,0.0,0.0
303,ypsonas,CY,2020-01-09 01:30:51,34.69,32.96,52.0,81,75,3.36,broken clouds,0.0,0.0
304,ames,US,2020-01-09 01:27:14,42.03,-93.62,26.01,53,1,17.22,clear sky,0.0,0.0
305,vung tau,VN,2020-01-09 01:30:51,10.35,107.08,86.11,54,0,2.08,clear sky,0.0,0.0
306,nago,IT,2020-01-09 01:30:52,45.88,10.89,42.01,100,90,2.24,fog,0.0,0.0
307,francisco beltrao,BR,2020-01-09 01:30:52,-26.08,-53.05,68.59,95,0,2.19,clear sky,0.0,0.0
308,kem,UG,2020-01-09 01:30:53,2.68,33.77,68.95,64,28,1.9,scattered clouds,0.0,0.0
309,esperance,AU,2020-01-09 01:30:53,-33.86,121.89,69.8,60,90,12.75,overcast clouds,0.0,0.0
310,jamsa,FI,2020-01-09 01:30:54,61.86,25.19,34.0,86,0,11.41,clear sky,0.0,0.0
311,mora,PT,2020-01-09 01:30:54,38.94,-8.17,53.01,100,0,1.01,clear sky,0.0,0.0
312,malindi,KE,2020-01-09 01:29:29,-3.22,40.12,76.78,90,91,2.42,light rain,0.19,0.0
313,vestmannaeyjar,IS,2020-01-09 01:30:54,63.44,-20.27,37.81,62,100,39.88,light snow,0.0,0.75
314,nhulunbuy,AU,2020-01-09 01:30:54,-12.18,136.78,86.0,70,75,17.22,shower rain,0.0,0.0
315,huangmei,CN,2020-01-09 01:30:55,30.1,115.95,39.79,90,100,13.73,light rain,1.06,0.0
316,sungairaya,ID,2020-01-09 01:30:55,0.7,108.9,84.72,78,56,2.68,light rain,3.0,0.0
317,iracoubo,GF,2020-01-09 01:30:55,5.48,-53.21,79.54,78,13,18.66,light rain,0.56,0.0
318,dedougou,BF,2020-01-09 01:30:55,12.47,-3.47,72.09,23,0,5.73,clear sky,0.0,0.0
319,barra patuca,HN,2020-01-09 01:30:56,15.8,-84.28,79.59,79,0,22.48,clear sky,0.0,0.0
320,gillette,US,2020-01-09 01:30:56,44.29,-105.5,41.0,55,75,10.29,broken clouds,0.0,0.0
321,dunedin,NZ,2020-01-09 01:30:56,-45.87,170.5,53.11,73,100,20.38,overcast clouds,0.0,0.0
322,fortuna,US,2020-01-09 01:30:56,40.6,-124.16,50.0,93,90,0.78,overcast clouds,0.0,0.0
323,orotukan,RU,2020-01-09 01:30:56,62.26,151.67,-21.86,78,99,2.48,overcast clouds,0.0,0.0
324,sangar,RU,2020-01-09 01:30:57,63.92,127.47,-13.59,99,98,0.49,overcast clouds,0.0,0.0
325,halifax,CA,2020-01-09 01:27:39,44.65,-63.58,28.0,100,75,16.11,light snow,0.0,0.0
326,oras,PH,2020-01-09 01:30:57,12.14,125.44,81.3,73,97,14.07,light rain,0.25,0.0
327,iquitos,PE,2020-01-09 01:30:57,-3.75,-73.25,78.8,83,100,2.77,overcast clouds,0.0,0.0
328,bodden town,KY,2020-01-09 01:30:57,19.28,-81.25,79.0,78,40,13.87,scattered clouds,0.0,0.0
329,vikulovo,RU,2020-01-09 01:30:58,55.07,40.96,26.69,89,100,13.24,overcast clouds,0.0,0.0
330,udachnyy,RU,2020-01-09 01:30:58,66.42,112.4,-0.4,84,96,4.47,overcast clouds,0.0,0.0
331,indramayu,ID,2020-01-09 01:30:58,-4.05,103.78,84.25,65,95,7.87,light rain,0.13,0.0
332,rong kwang,TH,2020-01-09 01:30:58,18.34,100.32,64.4,100,0,1.36,mist,0.0,0.0
333,petropavlovsk-kamchatskiy,RU,2020-01-09 01:30:58,53.05,158.65,17.6,85,90,13.42,light shower snow,0.0,0.0
334,masuguru,MZ,2020-01-09 01:30:59,-11.38,38.46,73.98,96,96,3.74,overcast clouds,0.0,0.0
335,sankeshwar,IN,2020-01-09 01:30:59,16.27,74.48,60.8,93,51,7.81,broken clouds,0.0,0.0
336,mnogovershinnyy,RU,2020-01-09 01:30:59,53.94,139.92,8.62,88,9,4.97,clear sky,0.0,0.0
337,solnechnyy,RU,2020-01-09 01:30:59,50.72,136.64,9.81,90,0,4.03,clear sky,0.0,0.0
338,srednekolymsk,RU,2020-01-09 01:30:59,67.46,153.71,-27.35,92,81,3.09,broken clouds,0.0,0.0
339,karema,TZ,2020-01-09 01:31:00,-6.82,30.44,70.81,85,100,5.91,light rain,1.38,0.0
340,biak,ID,2020-01-09 01:31:00,-0.91,122.88,83.55,70,100,2.55,overcast clouds,0.0,0.0
341,tra vinh,VN,2020-01-09 01:31:00,9.93,106.35,86.31,54,31,8.63,scattered clouds,0.0,0.0
342,cruz,BR,2020-01-09 01:31:00,-2.92,-40.18,76.37,89,5,2.59,clear sky,0.0,0.0
343,praia,BR,2020-01-09 01:31:01,-20.25,-43.81,73.4,78,20,2.13,few clouds,0.0,0.0
344,kerema,PG,2020-01-09 01:31:01,-7.96,145.78,82.45,86,100,7.16,moderate rain,6.0,0.0
345,nyaunglebin,MM,2020-01-09 01:31:01,17.95,96.73,78.49,47,0,5.41,clear sky,0.0,0.0
346,norman wells,CA,2020-01-09 01:31:02,65.28,-126.83,-31.0,73,90,2.24,light snow,0.0,0.0
347,avera,US,2020-01-09 01:31:02,33.19,-82.53,50.0,53,1,3.0,clear sky,0.0,0.0
348,wladyslawowo,PL,2020-01-09 01:31:02,54.79,18.4,45.0,87,64,9.17,broken clouds,0.0,0.0
349,marsabit,KE,2020-01-09 01:31:02,2.34,37.99,72.72,77,0,19.53,clear sky,0.0,0.0
350,charters towers,AU,2020-01-09 01:31:02,-20.07,146.27,95.76,27,0,12.3,clear sky,0.0,0.0
351,saint george,GR,2020-01-09 01:31:03,39.45,22.34,34.0,79,9,2.44,clear sky,0.0,0.0
352,glenwood springs,US,2020-01-09 01:31:03,39.55,-107.33,35.6,67,90,18.34,overcast clouds,0.0,0.0
353,los alamos,US,2020-01-09 01:31:04,35.88,-106.3,37.4,31,1,9.17,clear sky,0.0,0.0
354,rawson,AR,2020-01-09 01:28:33,-43.3,-65.11,64.9,35,97,29.62,overcast clouds,0.0,0.0
355,buncrana,GB,2020-01-09 01:31:05,55.14,-7.45,36.7,91,100,4.45,light rain,0.31,0.0
356,darab,IR,2020-01-09 01:31:05,28.75,54.55,45.09,65,100,2.21,overcast clouds,0.0,0.0
357,kuusamo,FI,2020-01-09 01:31:05,65.96,29.19,30.2,80,53,9.17,broken clouds,0.0,0.0
358,kovdor,RU,2020-01-09 01:31:05,67.56,30.47,25.11,87,40,13.65,scattered clouds,0.0,0.0
359,panjab,AF,2020-01-09 01:31:05,34.38,67.02,-4.5,14,0,2.46,clear sky,0.0,0.0
360,chase,US,2020-01-09 01:31:06,38.35,-98.35,53.01,43,1,21.92,clear sky,0.0,0.0
361,yantal,RU,2020-01-09 01:31:07,56.85,105.25,5.36,95,100,4.61,light snow,0.0,0.13
362,conceicao do araguaia,BR,2020-01-09 01:29:59,-8.26,-49.26,75.9,83,49,2.73,scattered clouds,0.0,0.0
363,alihe,CN,2020-01-09 01:31:08,50.57,123.73,4.69,77,99,3.4,overcast clouds,0.0,0.0
364,traverse city,US,2020-01-09 01:31:09,44.76,-85.62,24.01,62,90,3.36,light snow,0.0,0.0
365,westport,US,2020-01-09 01:30:08,41.14,-73.36,34.0,37,1,29.97,clear sky,0.0,0.0
366,honiara,SB,2020-01-09 01:31:09,-9.43,159.96,82.4,88,90,4.7,overcast clouds,0.0,0.0
367,basco,US,2020-01-09 01:31:10,40.33,-91.2,33.01,63,1,14.99,clear sky,0.0,0.0
368,saint-joseph,FR,2020-01-09 01:31:11,43.56,6.97,51.01,86,0,5.82,clear sky,0.0,0.0
369,ridgecrest,US,2020-01-09 01:27:02,35.62,-117.67,53.6,27,40,5.82,scattered clouds,0.0,0.0
370,naryan-mar,RU,2020-01-09 01:31:11,67.67,53.09,32.49,96,100,25.7,snow,0.0,2.69
371,san luis,AR,2020-01-09 01:31:11,-33.3,-66.34,80.91,33,15,22.39,few clouds,0.0,0.0
372,high level,CA,2020-01-09 01:31:11,58.52,-117.13,-13.0,75,40,9.17,scattered clouds,0.0,0.0
373,callaway,US,2020-01-09 01:31:12,46.98,-95.91,8.01,65,90,16.11,overcast clouds,0.0,0.0
374,mgandu,TZ,2020-01-09 01:31:12,-5.96,34.11,60.31,98,100,3.18,light rain,2.5,0.0
375,gorontalo,ID,2020-01-09 01:31:12,0.54,123.06,86.81,60,100,2.15,overcast clouds,0.0,0.0
376,geraldton,CA,2020-01-09 01:26:14,49.72,-86.95,-18.4,68,5,2.24,clear sky,0.0,0.0
377,goderich,CA,2020-01-09 01:31:12,43.74,-81.71,24.01,86,95,8.01,light snow,0.0,0.13
378,coihaique,CL,2020-01-09 01:31:13,-45.58,-72.07,37.4,86,90,5.82,light rain,0.0,0.0
379,batagay-alyta,RU,2020-01-09 01:31:13,67.8,130.41,-13.23,74,7,3.06,clear sky,0.0,0.0
380,guia de isora,ES,2020-01-09 01:31:13,28.21,-16.78,62.6,51,20,8.05,few clouds,0.0,0.0
381,necochea,AR,2020-01-09 01:31:14,-38.55,-58.74,64.99,88,100,7.0,overcast clouds,0.0,0.0
382,cockburn town,TC,2020-01-09 01:31:14,21.46,-71.14,78.8,74,75,9.17,broken clouds,0.0,0.0
383,souillac,FR,2020-01-09 01:31:14,45.6,-0.6,50.0,93,100,3.36,overcast clouds,0.0,0.0
384,garden city,US,2020-01-09 01:31:14,43.62,-116.24,45.0,86,90,5.82,overcast clouds,0.0,0.0
385,atambua,ID,2020-01-09 01:31:15,-9.11,124.89,82.9,65,87,5.39,overcast clouds,0.0,0.0
386,kloulklubed,PW,2020-01-09 01:31:16,7.04,134.26,84.2,70,75,10.29,broken clouds,0.0,0.0
387,cayenne,GF,2020-01-09 01:26:59,4.94,-52.33,78.8,83,75,8.05,broken clouds,0.0,0.0
388,saldanha,PT,2020-01-09 01:31:18,41.42,-6.55,39.67,85,1,2.33,clear sky,0.0,0.0
389,faya,SA,2020-01-09 01:31:18,18.39,42.45,57.2,87,75,13.87,broken clouds,0.0,0.0
390,kunming,CN,2020-01-09 01:28:14,25.04,102.71,48.2,70,40,8.95,scattered clouds,0.0,0.0
391,fairbanks,US,2020-01-09 01:29:20,64.84,-147.72,-27.0,64,1,0.89,mist,0.0,0.0
392,oksovskiy,RU,2020-01-09 01:31:19,62.61,39.91,37.18,96,100,11.52,light rain,0.69,0.0
393,shangrao,CN,2020-01-09 01:31:19,28.45,117.97,46.38,67,79,9.62,broken clouds,0.0,0.0
394,hashtrud,IR,2020-01-09 01:31:20,37.48,47.05,27.25,97,100,1.99,light snow,0.0,0.75
395,ugoofaaru,MV,2020-01-09 01:31:20,5.67,73.0,82.0,74,67,11.14,broken clouds,0.0,0.0
396,lexington,US,2020-01-09 01:26:50,38.05,-84.5,37.4,46,1,4.7,clear sky,0.0,0.0
397,biloela,AU,2020-01-09 01:31:20,-24.4,150.51,95.61,18,0,7.34,clear sky,0.0,0.0
398,chumikan,RU,2020-01-09 01:31:21,54.72,135.31,11.91,74,91,8.32,overcast clouds,0.0,0.0
399,toamasina,MG,2020-01-09 01:31:21,-18.17,49.38,77.0,94,75,9.31,shower rain,0.0,0.0
400,shenjiamen,CN,2020-01-09 01:31:21,29.96,122.3,49.73,68,100,6.78,overcast clouds,0.0,0.0
401,ust-kulom,RU,2020-01-09 01:31:22,61.69,53.69,18.1,89,100,14.23,light snow,0.0,0.13
402,coquimbo,CL,2020-01-09 01:31:22,-29.95,-71.34,62.6,82,0,9.17,clear sky,0.0,0.0
403,den helder,NL,2020-01-09 01:31:22,52.96,4.76,48.99,100,90,4.7,mist,0.0,0.0
404,inirida,CO,2020-01-09 01:31:22,3.87,-67.92,75.96,79,23,2.3,few clouds,0.0,0.0
405,oneonta,US,2020-01-09 01:29:44,42.45,-75.06,21.0,73,96,3.0,light snow,0.0,0.5
406,rapid valley,US,2020-01-09 01:31:23,44.06,-103.15,36.0,86,90,9.17,overcast clouds,0.0,0.0
407,sabha,LY,2020-01-09 01:31:23,27.03,14.43,43.02,59,55,7.83,broken clouds,0.0,0.0
408,iskateley,RU,2020-01-09 01:31:23,67.68,53.15,32.49,96,100,25.7,snow,0.0,2.69
409,santa cruz,BR,2020-01-09 01:31:24,-6.22,-36.02,74.98,87,85,2.48,moderate rain,3.81,0.0
410,chernyshevsk,RU,2020-01-09 01:31:24,52.51,117.01,-3.53,96,100,0.89,overcast clouds,0.0,0.0
411,calama,CL,2020-01-09 01:31:24,-22.46,-68.93,60.8,51,2,16.11,clear sky,0.0,0.0
412,bela,PK,2020-01-09 01:31:24,26.23,66.31,54.99,40,0,2.66,clear sky,0.0,0.0
413,baijiantan,CN,2020-01-09 01:31:24,45.63,85.18,11.98,92,100,1.68,overcast clouds,0.0,0.0
414,buchanan,LR,2020-01-09 01:31:25,5.88,-10.05,77.0,94,20,2.8,mist,0.0,0.0
415,synya,RU,2020-01-09 01:31:26,65.37,58.04,19.11,90,100,18.21,light snow,0.0,1.38
416,gat,SN,2020-01-09 01:31:26,14.69,-16.54,68.0,37,52,17.22,broken clouds,0.0,0.0
417,manicore,BR,2020-01-09 01:31:26,-5.81,-61.3,71.35,97,100,1.99,overcast clouds,0.0,0.0
418,nola,CF,2020-01-09 01:31:27,3.52,16.05,66.92,48,64,1.48,broken clouds,0.0,0.0
419,muana,BR,2020-01-09 01:31:27,-1.53,-49.22,76.01,90,100,7.16,overcast clouds,0.0,0.0
420,ostrovnoy,RU,2020-01-09 01:31:28,68.05,39.51,33.48,97,100,14.09,light snow,0.0,0.44
421,zhigalovo,RU,2020-01-09 01:31:28,54.81,105.15,5.54,95,100,1.83,light snow,0.0,0.31
422,gujar khan,PK,2020-01-09 01:31:28,33.26,73.31,37.99,100,0,4.32,mist,0.0,0.0
423,melenci,RS,2020-01-09 01:31:30,45.52,20.32,34.0,92,75,4.07,mist,0.0,0.0
424,kiria,DZ,2020-01-09 01:31:30,36.72,4.57,48.2,93,40,5.82,scattered clouds,0.0,0.0
425,rochester,US,2020-01-09 01:28:00,44.02,-92.46,15.01,66,1,6.93,clear sky,0.0,0.0
426,puerto quijarro,BO,2020-01-09 01:31:30,-19.0,-57.72,75.4,87,0,2.37,clear sky,0.0,0.0
427,tura,RU,2020-01-09 01:31:31,64.27,100.22,-8.43,93,0,5.57,clear sky,0.0,0.0
428,gambela,ET,2020-01-09 01:31:31,8.25,34.59,76.68,68,67,2.91,broken clouds,0.0,0.0
429,bonavista,CA,2020-01-09 01:31:31,48.65,-53.11,31.93,98,100,24.05,snow,0.0,5.94
430,klaksvik,FO,2020-01-09 01:31:31,62.23,-6.59,43.66,67,79,25.32,light rain,0.31,0.0
431,alghero,IT,2020-01-09 01:31:32,40.56,8.32,45.0,87,0,8.05,clear sky,0.0,0.0
432,gravdal,NO,2020-01-09 01:31:32,59.79,5.78,44.6,75,100,20.8,snow,0.0,3.06
433,xiongzhou,CN,2020-01-09 01:31:33,32.34,118.83,39.99,100,90,6.71,light snow,0.0,0.0
434,bandarbeyla,SO,2020-01-09 01:31:33,9.49,50.81,78.58,72,65,16.24,light rain,0.25,0.0
435,evensk,RU,2020-01-09 01:31:34,61.92,159.24,9.61,71,79,12.71,broken clouds,0.0,0.0
436,general roca,AR,2020-01-09 01:31:34,-39.03,-67.58,68.0,28,0,20.8,clear sky,0.0,0.0
437,umm lajj,SA,2020-01-09 01:31:35,25.02,37.27,52.74,51,44,8.95,scattered clouds,0.0,0.0
438,pahrump,US,2020-01-09 01:31:35,36.21,-115.98,55.0,26,1,9.17,clear sky,0.0,0.0
439,tagusao,PH,2020-01-09 01:31:35,9.19,117.81,83.05,69,75,10.71,broken clouds,0.0,0.0
440,college,US,2020-01-09 01:31:35,64.86,-147.8,-27.0,64,1,1.68,mist,0.0,0.0
441,nova prata,BR,2020-01-09 01:31:36,-28.78,-51.61,73.99,83,0,5.99,clear sky,0.0,0.0
442,chapais,CA,2020-01-09 01:31:36,49.78,-74.86,1.4,77,90,11.41,light snow,0.0,0.0
443,bure,NG,2020-01-09 01:31:36,10.52,10.33,64.45,32,0,7.29,clear sky,0.0,0.0
444,marienburg,DE,2020-01-09 01:31:36,52.12,9.98,51.8,93,40,5.82,light rain,0.0,0.0
445,kiunga,PG,2020-01-09 01:31:36,-6.12,141.3,90.43,52,99,4.54,overcast clouds,0.0,0.0
446,maraba,BR,2020-01-09 01:31:36,-5.35,-49.1,82.4,83,75,5.82,thunderstorm,0.0,0.0
447,nome,US,2020-01-09 01:31:37,30.04,-94.42,61.0,77,90,11.41,overcast clouds,0.0,0.0
448,price,US,2020-01-09 01:31:37,39.6,-110.81,30.99,78,75,4.65,broken clouds,0.0,0.0
449,havelock,US,2020-01-09 01:31:37,34.88,-76.9,51.8,49,1,4.43,clear sky,0.0,0.0
450,cam ranh,VN,2020-01-09 01:31:37,11.92,109.15,82.4,65,20,14.99,few clouds,0.0,0.0
451,jalpan,MX,2020-01-09 01:31:37,19.0,-100.36,57.99,63,1,1.99,clear sky,0.0,0.0
452,ponta delgada,PT,2020-01-09 01:31:38,37.73,-25.67,60.8,82,20,5.82,few clouds,0.0,0.0
453,gainesville,US,2020-01-09 01:31:38,29.65,-82.33,50.0,80,40,3.36,scattered clouds,0.0,0.0
454,wana,PK,2020-01-09 01:31:38,32.31,69.59,24.96,19,0,3.18,clear sky,0.0,0.0
455,ikungi,TZ,2020-01-09 01:31:38,-5.13,34.77,60.85,96,95,2.21,overcast clouds,0.0,0.0
456,mahibadhoo,MV,2020-01-09 01:31:39,3.78,72.97,81.66,77,100,10.98,light rain,0.13,0.0
457,calabozo,VE,2020-01-09 01:27:09,8.92,-67.43,83.66,44,9,8.39,clear sky,0.0,0.0
458,nelson bay,AU,2020-01-09 01:31:39,-32.72,152.14,75.99,83,90,17.22,overcast clouds,0.0,0.0
459,mana,NG,2020-01-09 01:31:39,13.03,5.27,67.28,22,3,14.38,clear sky,0.0,0.0
460,waipawa,NZ,2020-01-09 01:31:40,-39.94,176.59,73.87,33,54,9.31,broken clouds,0.0,0.0
461,magpet,PH,2020-01-09 01:31:40,7.1,125.12,80.6,83,75,11.41,broken clouds,0.0,0.0
462,changde,CN,2020-01-09 01:31:40,29.04,111.68,37.15,92,100,8.48,light rain,1.13,0.0
463,yumen,CN,2020-01-09 01:31:40,40.29,97.04,20.07,56,100,3.56,overcast clouds,0.0,0.0
464,richards bay,ZA,2020-01-09 01:31:41,-28.77,32.06,78.42,78,74,11.43,broken clouds,0.0,0.0
465,labytnangi,RU,2020-01-09 01:31:41,66.66,66.39,-1.12,97,100,8.48,light snow,0.0,0.19
466,mazyr,BY,2020-01-09 01:31:41,52.05,29.27,32.58,93,100,10.78,light rain,0.88,0.0
467,havoysund,NO,2020-01-09 01:31:41,71.0,24.66,32.0,68,33,8.05,scattered clouds,0.0,0.0
468,tanout,NE,2020-01-09 01:31:42,14.97,8.88,60.3,25,16,14.63,few clouds,0.0,0.0
469,lichinga,MZ,2020-01-09 01:31:42,-13.3,35.25,64.78,93,100,1.25,light rain,0.19,0.0
470,fort nelson,CA,2020-01-09 01:31:42,58.81,-122.69,-14.8,75,90,2.24,light snow,0.0,0.0
471,saint-raymond,CA,2020-01-09 01:31:42,46.89,-71.84,25.0,79,75,5.82,broken clouds,0.0,0.0
472,katobu,ID,2020-01-09 01:31:42,-4.94,122.53,86.05,73,94,1.19,light rain,2.06,0.0
473,mount isa,AU,2020-01-09 01:31:43,-20.73,139.49,93.2,41,40,10.29,scattered clouds,0.0,0.0
474,seryshevo,RU,2020-01-09 01:31:43,51.09,128.38,2.77,84,0,2.93,clear sky,0.0,0.0
475,ballina,IE,2020-01-09 01:31:43,54.11,-9.15,39.0,90,100,1.01,light rain,0.0,0.0
476,nea stira,GR,2020-01-09 01:30:30,38.18,24.2,44.6,66,40,16.11,scattered clouds,0.0,0.0
477,san ramon,NI,2020-01-09 01:31:44,12.92,-85.84,66.58,80,1,13.31,clear sky,0.0,0.0
478,yago,MX,2020-01-09 01:31:44,21.83,-105.07,68.0,68,75,5.82,broken clouds,0.0,0.0
479,presidencia roque saenz pena,AR,2020-01-09 01:31:44,-26.79,-60.44,85.69,48,24,7.16,few clouds,0.0,0.0
480,port shepstone,ZA,2020-01-09 01:31:44,-30.74,30.45,69.33,83,0,3.87,clear sky,0.0,0.0
481,villa carlos paz,AR,2020-01-09 01:31:44,-31.42,-64.5,84.99,65,20,9.17,few clouds,0.0,0.0
482,sortavala,RU,2020-01-09 01:31:45,61.7,30.69,36.54,81,0,16.35,clear sky,0.0,0.0
483,vardo,US,2020-01-09 01:31:45,39.62,-77.74,34.0,54,1,8.05,clear sky,0.0,0.0
484,voyvozh,RU,2020-01-09 01:31:46,62.89,54.96,19.49,90,100,15.23,light snow,0.0,0.31
485,pundaguitan,PH,2020-01-09 01:31:47,6.37,126.17,80.04,81,100,5.3,light rain,1.38,0.0
486,kavieng,PG,2020-01-09 01:31:47,-2.57,150.8,84.47,75,100,12.77,light rain,1.5,0.0
487,hayesville,US,2020-01-09 01:31:47,35.05,-83.82,46.99,88,1,2.37,clear sky,0.0,0.0
488,smithers,CA,2020-01-09 01:31:47,54.78,-127.17,12.2,85,75,3.36,broken clouds,0.0,0.0
489,port blair,IN,2020-01-09 01:31:47,11.67,92.75,77.0,88,20,2.24,mist,0.0,0.0
490,doha,QA,2020-01-09 01:26:57,25.29,51.53,62.6,82,40,3.06,mist,0.0,0.0
491,gardabani,GE,2020-01-09 01:31:48,41.46,45.09,28.4,79,46,2.24,scattered clouds,0.0,0.0
492,nixa,US,2020-01-09 01:27:43,37.04,-93.29,55.4,26,1,19.46,clear sky,0.0,0.0
493,aswan,EG,2020-01-09 01:31:48,24.09,32.9,46.4,49,35,9.17,scattered clouds,0.0,0.0
494,hambantota,LK,2020-01-09 01:31:49,6.12,81.12,77.13,75,100,15.26,overcast clouds,0.0,0.0
495,itarema,BR,2020-01-09 01:31:49,-2.92,-39.92,76.37,89,5,2.59,clear sky,0.0,0.0
496,shimoda,JP,2020-01-09 01:31:49,34.7,138.93,63.0,51,20,4.7,few clouds,0.0,0.0
497,dudinka,RU,2020-01-09 01:31:49,69.41,86.18,-4.0,76,75,22.37,light shower snow,0.0,0.0
498,mildura,AU,2020-01-09 01:31:49,-34.18,142.16,89.6,25,0,3.36,clear sky,0.0,0.0
499,sile,US,2020-01-09 01:31:50,35.56,-106.37,43.0,32,1,3.36,clear sky,0.0,0.0
500,kamareddi,IN,2020-01-09 01:31:50,18.32,78.34,69.93,85,90,4.9,light rain,0.25,0.0
501,torbay,CA,2020-01-09 01:31:50,47.66,-52.73,35.01,99,90,16.11,light rain,0.0,0.0
502,ati,TD,2020-01-09 01:31:51,13.21,18.34,69.03,20,0,13.82,clear sky,0.0,0.0
503,opuwo,NA,2020-01-09 01:31:51,-18.06,13.84,65.61,68,60,4.5,broken clouds,0.0,0.0
504,terrace,CA,2020-01-09 01:31:51,54.52,-128.61,21.2,92,90,2.24,light snow,0.0,0.0
505,cairns,AU,2020-01-09 01:31:10,-16.92,145.77,91.0,70,75,16.11,light intensity shower rain,0.0,0.0
506,xingcheng,CN,2020-01-09 01:31:52,40.62,120.71,27.68,45,0,3.69,clear sky,0.0,0.0
507,baracoa,CU,2020-01-09 01:31:52,20.35,-74.5,78.21,80,33,18.9,light rain,0.88,0.0
508,ocos,GT,2020-01-09 01:31:53,14.51,-92.19,82.4,88,40,2.95,scattered clouds,0.0,0.0
509,waingapu,ID,2020-01-09 01:31:53,-9.65,120.26,83.1,76,100,12.73,overcast clouds,0.0,0.0
510,darnah,LY,2020-01-09 01:31:53,32.77,22.64,54.21,65,10,25.43,light rain,0.13,0.0
511,lagoa,PT,2020-01-09 01:31:53,37.14,-8.45,52.0,76,0,3.36,clear sky,0.0,0.0
512,santa isabel do rio negro,BR,2020-01-09 01:31:54,-0.41,-65.02,78.85,71,78,2.57,broken clouds,0.0,0.0
513,cabedelo,BR,2020-01-09 01:31:54,-6.97,-34.84,80.6,83,75,8.05,broken clouds,0.0,0.0
514,chifeng,CN,2020-01-09 01:31:31,42.27,118.96,22.5,35,0,3.74,clear sky,0.0,0.0
515,bilma,NE,2020-01-09 01:31:54,18.69,12.92,57.33,24,69,9.69,broken clouds,0.0,0.0
516,yamada,JP,2020-01-09 01:31:54,36.58,137.08,48.99,75,40,5.82,scattered clouds,0.0,0.0
517,gorin,BF,2020-01-09 01:31:55,12.34,-0.67,71.78,25,0,8.28,clear sky,0.0,0.0
518,kovernino,RU,2020-01-09 01:31:55,57.13,43.81,28.27,92,100,14.72,light snow,0.0,0.38
519,wuwei,CN,2020-01-09 01:31:55,37.93,102.64,23.29,58,100,2.24,overcast clouds,0.0,0.0
520,tekirdag,TR,2020-01-09 01:30:00,40.98,27.51,34.0,74,40,14.99,scattered clouds,0.0,0.0
521,kenora,CA,2020-01-09 01:30:14,49.76,-94.48,1.4,64,90,12.75,overcast clouds,0.0,0.0
522,ucluelet,CA,2020-01-09 01:31:56,48.94,-125.55,39.0,93,75,5.82,broken clouds,0.0,0.0
523,bognor regis,GB,2020-01-09 01:31:56,50.78,-0.67,53.01,100,75,16.11,drizzle,0.0,0.0
524,kamaishi,JP,2020-01-09 01:31:56,39.28,141.86,39.2,86,75,6.93,light intensity shower rain,0.0,0.0
525,tharad,IN,2020-01-09 01:31:56,24.39,71.63,52.54,49,0,9.82,clear sky,0.0,0.0
526,vaitape,PF,2020-01-09 01:31:56,-16.52,-151.75,81.03,80,0,19.33,light rain,1.94,0.0
527,haukipudas,FI,2020-01-09 01:31:56,65.17,25.5,37.4,69,75,13.87,broken clouds,0.0,0.0
528,porosozero,RU,2020-01-09 01:31:57,62.72,32.71,31.41,88,34,10.45,scattered clouds,0.0,0.0
529,baherden,TM,2020-01-09 01:31:57,38.44,57.43,36.54,64,67,5.39,broken clouds,0.0,0.0
530,turukhansk,RU,2020-01-09 01:31:57,65.8,87.96,-6.97,96,100,10.04,light snow,0.0,0.19
531,escanaba,US,2020-01-09 01:31:58,45.75,-87.06,12.99,84,1,11.81,clear sky,0.0,0.0
532,ust-nera,RU,2020-01-09 01:31:58,64.57,143.24,-35.05,100,100,1.14,overcast clouds,0.0,0.0
533,lososina,RU,2020-01-09 01:31:59,49.0,140.31,16.36,76,0,2.26,clear sky,0.0,0.0
534,lar,IR,2020-01-09 01:31:59,27.66,54.32,41.0,86,41,1.88,scattered clouds,0.0,0.0
535,trinidad,BO,2020-01-09 01:31:59,-14.83,-64.9,76.37,86,95,3.2,overcast clouds,0.0,0.0
536,miyako,JP,2020-01-09 01:31:59,33.63,130.94,55.0,66,40,17.22,scattered clouds,0.0,0.0
537,isangel,VU,2020-01-09 01:31:59,-19.55,169.27,89.6,55,40,9.17,scattered clouds,0.0,0.0
538,mingaora,PK,2020-01-09 01:30:32,34.78,72.36,27.77,24,0,8.5,clear sky,0.0,0.0
539,iwaki,JP,2020-01-09 01:32:00,37.05,140.89,52.0,56,40,19.46,scattered clouds,0.0,0.0
540,weiswampach,DE,2020-01-09 01:32:00,50.14,6.08,50.0,100,100,8.05,light rain,0.0,0.0
541,swan hill,AU,2020-01-09 01:32:00,-35.34,143.56,101.48,11,0,1.12,clear sky,0.0,0.0
542,riobamba,EC,2020-01-09 01:32:00,-1.67,-78.65,42.19,89,8,1.21,clear sky,0.0,0.0
543,vista hermosa,MX,2020-01-09 01:32:01,14.92,-92.27,77.0,88,40,3.47,scattered clouds,0.0,0.0
544,ipameri,BR,2020-01-09 01:32:01,-17.72,-48.16,68.7,90,100,1.83,overcast clouds,0.0,0.0
545,merauke,ID,2020-01-09 01:32:01,-8.49,140.4,88.25,61,100,5.93,overcast clouds,0.0,0.0
546,mandali,IQ,2020-01-09 01:32:01,33.75,45.55,50.0,63,0,7.36,clear sky,0.0,0.0
547,vao,EE,2020-01-09 01:32:01,59.1,26.19,35.71,83,0,11.23,clear sky,0.0,0.0
548,viransehir,TR,2020-01-09 01:32:02,37.24,39.76,42.6,79,100,7.31,overcast clouds,0.0,0.0
549,verkhoshizhemye,RU,2020-01-09 01:32:02,58.01,49.1,19.17,91,100,14.32,light snow,0.0,0.19
550,kerchevskiy,RU,2020-01-09 01:32:02,59.95,56.29,11.1,91,100,13.44,light snow,0.0,0.13
551,keti bandar,PK,2020-01-09 01:32:02,24.14,67.45,57.43,42,0,10.63,clear sky,0.0,0.0
552,deputatskiy,RU,2020-01-09 01:32:02,69.3,139.9,-15.79,95,91,3.8,overcast clouds,0.0,0.0
